$GPGGA,124825.60,5127.4132835,N,00604.9201980,E,4,26,0.5,23.5382,M,47.3942,M,1.6,4095*77
$PSSN,HRP,124825.60,270824,330.592,,0.179,0.070,,0.149,31,2,2.661,E*01
$GPGGA,124825.80,5127.4132836,N,00604.9201968,E,4,26,0.5,23.5373,M,47.3942,M,0.8,4095*7D
$PSSN,HRP,124825.80,270824,330.598,,0.191,0.070,,0.149,31,2,2.661,E*03
$GPGGA,124826.00,5127.4132840,N,00604.9201974,E,4,26,0.5,23.5369,M,47.3942,M,1.0,4095*78
$PSSN,HRP,124826.00,270824,330.574,,0.195,0.070,,0.149,31,2,2.661,E*0E
$GPGGA,124826.20,5127.4132837,N,00604.9201971,E,4,26,0.5,23.5350,M,47.3942,M,1.2,4095*77
$PSSN,HRP,124826.20,270824,330.600,,0.192,0.069,,0.149,31,2,2.661,E*03
$GPGGA,124826.40,5127.4132840,N,00604.9201978,E,4,26,0.5,23.5366,M,47.3942,M,1.4,4095*7B
$PSSN,HRP,124826.40,270824,330.587,,0.181,0.069,,0.149,31,2,2.661,E*0B
$GPGGA,124826.60,5127.4132839,N,00604.9201981,E,4,26,0.5,23.5374,M,47.3942,M,1.6,4095*70
$PSSN,HRP,124826.60,270824,330.610,,0.188,0.069,,0.149,31,2,2.661,E*0D
$GPGGA,124826.80,5127.4132843,N,00604.9201980,E,4,26,0.5,23.5391,M,47.3942,M,0.8,4095*76
$PSSN,HRP,124826.80,270824,330.580,,0.170,0.069,,0.149,31,2,2.661,E*0E
$GPGGA,124827.00,5127.4132845,N,00604.9201993,E,4,26,0.5,23.5411,M,47.3942,M,1.0,4095*7D
$PSSN,HRP,124827.00,270824,330.581,,0.151,0.069,,0.149,31,2,2.661,E*05
$GPGGA,124827.20,5127.4132843,N,00604.9201996,E,4,26,0.5,23.5411,M,47.3943,M,1.2,4095*7F
$PSSN,HRP,124827.20,270824,330.583,,0.144,0.069,,0.149,31,2,2.661,E*01
$GPGGA,124827.40,5127.4132846,N,00604.9201990,E,4,26,0.5,23.5416,M,47.3943,M,1.4,4095*7B
$PSSN,HRP,124827.40,270824,330.609,,0.141,0.069,,0.149,31,2,2.661,E*03
$GPGGA,124827.60,5127.4132843,N,00604.9201996,E,4,26,0.5,23.5413,M,47.3943,M,1.6,4095*7D
$PSSN,HRP,124827.60,270824,330.587,,0.133,0.069,,0.149,31,2,2.661,E*01
$GPGGA,124827.80,5127.4132846,N,00604.9201997,E,4,26,0.5,23.5388,M,47.3942,M,0.8,4095*7C
$PSSN,HRP,124827.80,270824,330.567,,0.139,0.069,,0.149,31,2,2.661,E*0B
$GPGGA,124828.00,5127.4132852,N,00604.9201993,E,4,26,0.5,23.5385,M,47.3942,M,1.0,4095*7E
$PSSN,HRP,124828.00,270824,330.577,,0.167,0.069,,0.149,31,2,2.661,E*06
$GPGGA,124828.20,5127.4132850,N,00604.9201991,E,4,26,0.5,23.5372,M,47.3943,M,1.2,4095*77
$PSSN,HRP,124828.20,270824,330.576,,0.174,0.069,,0.149,31,2,2.661,E*07
$GPGGA,124828.40,5127.4132842,N,00604.9201996,E,4,26,0.5,23.5379,M,47.3943,M,1.4,4095*78
$PSSN,HRP,124828.40,270824,330.578,,0.167,0.069,,0.149,31,2,2.661,E*0D
$GPGGA,124828.60,5127.4132840,N,00604.9201987,E,4,26,0.5,23.5359,M,47.3943,M,1.6,4095*78
$PSSN,HRP,124828.60,270824,330.584,,0.159,0.069,,0.149,31,2,2.661,E*01
$GPGGA,124828.80,5127.4132846,N,00604.9201990,E,4,26,0.5,23.5383,M,47.3942,M,0.8,4095*7F
$PSSN,HRP,124828.80,270824,330.595,,0.177,0.069,,0.149,31,2,2.661,E*03
$GPGGA,124829.00,5127.4132844,N,00604.9201985,E,4,26,0.5,23.5377,M,47.3942,M,1.0,4095*72
$PSSN,HRP,124829.00,270824,330.579,,0.150,0.069,,0.149,31,2,2.661,E*0D
$GPGGA,124829.20,5127.4132849,N,00604.9201987,E,4,26,0.5,23.5390,M,47.3943,M,1.2,4095*75
$PSSN,HRP,124829.20,270824,330.579,,0.172,0.069,,0.149,31,2,2.661,E*0F
$GPGGA,124829.40,5127.4132848,N,00604.9201987,E,4,26,0.5,23.5407,M,47.3943,M,1.4,4095*7D
$PSSN,HRP,124829.40,270824,330.561,,0.170,0.069,,0.149,31,2,2.661,E*02
$GPGGA,124829.60,5127.4132845,N,00604.9201988,E,4,26,0.5,23.5398,M,47.3943,M,1.6,4095*7E
$PSSN,HRP,124829.60,270824,330.576,,0.179,0.069,,0.149,31,2,2.661,E*0F
$GPGGA,124829.80,5127.4132847,N,00604.9201985,E,4,26,0.5,23.5392,M,47.3942,M,0.8,4095*7B
$PSSN,HRP,124829.80,270824,330.568,,0.175,0.069,,0.149,31,2,2.661,E*02
$GPGGA,124830.00,5127.4132845,N,00604.9201981,E,4,26,0.5,23.5380,M,47.3942,M,1.0,4095*77
$PSSN,HRP,124830.00,270824,330.585,,0.162,0.069,,0.149,31,2,2.661,E*07
$GPGGA,124830.20,5127.4132846,N,00604.9201979,E,4,26,0.5,23.5379,M,47.3943,M,1.2,4095*74
$PSSN,HRP,124830.20,270824,330.570,,0.153,0.069,,0.149,31,2,2.661,E*0D
$GPGGA,124830.40,5127.4132836,N,00604.9201984,E,4,26,0.5,23.5388,M,47.3943,M,1.4,4095*7F
$PSSN,HRP,124830.40,270824,330.584,,0.155,0.069,,0.149,31,2,2.661,E*06
$GPGGA,124830.60,5127.4132845,N,00604.9201984,E,4,26,0.5,23.5388,M,47.3943,M,1.6,4095*7B
$PSSN,HRP,124830.60,270824,330.578,,0.161,0.069,,0.149,31,2,2.661,E*00
$GPGGA,124830.80,5127.4132841,N,00604.9201978,E,4,26,0.5,23.5359,M,47.3942,M,0.8,4095*70
$PSSN,HRP,124830.80,270824,330.570,,0.157,0.069,,0.149,31,2,2.661,E*03
$GPGGA,124831.00,5127.4132847,N,00604.9201978,E,4,26,0.5,23.5353,M,47.3942,M,1.0,4095*7C
$PSSN,HRP,124831.00,270824,330.585,,0.145,0.069,,0.149,31,2,2.661,E*03
$GPGGA,124831.20,5127.4132838,N,00604.9201983,E,4,26,0.5,23.5351,M,47.3942,M,1.2,4095*72
$PSSN,HRP,124831.20,270824,330.583,,0.171,0.069,,0.149,31,2,2.661,E*00
$GPGGA,124831.40,5127.4132843,N,00604.9201979,E,4,26,0.5,23.5333,M,47.3942,M,1.4,4095*7F
$PSSN,HRP,124831.40,270824,330.571,,0.161,0.070,,0.149,31,2,2.661,E*02
$GPGGA,124831.60,5127.4132838,N,00604.9201984,E,4,26,0.5,23.5353,M,47.3942,M,1.6,4095*77
$PSSN,HRP,124831.60,270824,330.579,,0.177,0.070,,0.149,31,2,2.661,E*0F
$GPGGA,124831.80,5127.4132845,N,00604.9201976,E,4,26,0.5,23.5347,M,47.3942,M,0.8,4095*74
$PSSN,HRP,124831.80,270824,330.566,,0.190,0.070,,0.149,31,2,2.661,E*06
$GPGGA,124832.00,5127.4132842,N,00604.9201965,E,4,26,0.5,23.5342,M,47.3942,M,1.0,4095*76
$PSSN,HRP,124832.00,270824,330.605,,0.184,0.069,,0.149,31,2,2.661,E*06
$GPGGA,124832.20,5127.4132847,N,00604.9201962,E,4,26,0.5,23.5362,M,47.3942,M,1.2,4095*76
$PSSN,HRP,124832.20,270824,330.604,,0.192,0.070,,0.149,31,2,2.661,E*0A
$GPGGA,124832.40,5127.4132849,N,00604.9201963,E,4,26,0.5,23.5373,M,47.3942,M,1.4,4095*79
$PSSN,HRP,124832.40,270824,330.592,,0.192,0.070,,0.149,31,2,2.661,E*00
$GPGGA,124832.60,5127.4132853,N,00604.9201967,E,4,26,0.5,23.5391,M,47.3942,M,1.6,4095*7A
$PSSN,HRP,124832.60,270824,330.592,,0.213,0.070,,0.149,31,2,2.661,E*08
$GPGGA,124832.80,5127.4132852,N,00604.9201966,E,4,26,0.5,23.5367,M,47.3942,M,0.8,4095*72
$PSSN,HRP,124832.80,270824,330.582,,0.208,0.069,,0.149,31,2,2.661,E*05
$GPGGA,124833.00,5127.4132858,N,00604.9201962,E,4,26,0.5,23.5373,M,47.3942,M,1.0,4095*79
$PSSN,HRP,124833.00,270824,330.589,,0.206,0.070,,0.149,31,2,2.661,E*01
$GPGGA,124833.20,5127.4132854,N,00604.9201976,E,4,26,0.5,23.5361,M,47.3942,M,1.2,4095*73
$PSSN,HRP,124833.20,270824,330.579,,0.183,0.070,,0.149,31,2,2.661,E*02
$GPGGA,124833.40,5127.4132850,N,00604.9201965,E,4,26,0.5,23.5362,M,47.3942,M,1.4,4095*76
$PSSN,HRP,124833.40,270824,330.594,,0.182,0.070,,0.149,31,2,2.661,E*06
